[
{"webSite":null,"sourceOfInformation":"箕面ビール公式サイト","state":"北海道","shopFlg":false,"name":"BAR MINO","phone_number":"011-272-2004","address":"札幌市中央区北1西3 古久根ビル　B1F","latitude":"43.071883","longitude:":"141.350176"},
{"webSite":null,"sourceOfInformation":"箕面ビール公式サイト","state":"北海道","shopFlg":false,"name":"beer&food HIGURASHI","phone_number":"011-532-8480","address":"札幌市中央区南5条西2丁目社交会館3F","latitude":"43.054937","longitude:":"141.356103"},
{"webSite":null,"sourceOfInformation":"箕面ビール公式サイト","state":"山形県","shopFlg":false,"name":"THE ARCHIGRAM British Pub & Cafe","phone_number":"023-622-7570","address":"山形市十日町2-1-35","latitude":"38.245881","longitude:":"140.336297"},
{"webSite":null,"sourceOfInformation":"箕面ビール公式サイト","state":"東京都","shopFlg":false,"name":"かんも　-kammo-","phone_number":"03-3782-5690","address":"品川区中延5-9-10村本ﾊ101","latitude":"35.607022","longitude:":"139.710467"},
{"webSite":null,"sourceOfInformation":"箕面ビール公式サイト","state":"東京都","shopFlg":false,"name":"Goodbeer Faucets","phone_number":"03-3770-5544","address":"渋谷区松濤1-29-1 クロスロードビル 2F","latitude":"35.660622","longitude:":"139.6939"},
{"webSite":null,"sourceOfInformation":"箕面ビール公式サイト","state":"東京都","shopFlg":false,"name":"Craft Beer & Whisky Bar Transit","phone_number":"03-6426-7788","address":"品川区旗の台5-13-12 佐藤ビル２Ｆ","latitude":"35.633737","longitude:":"139.68568"},
{"webSite":null,"sourceOfInformation":"箕面ビール公式サイト","state":"東京都","shopFlg":false,"name":"リバーサイド","phone_number":"03-5577-4199","address":"板橋区中板橋4-15-1 藤井ビル　1F","latitude":"35.756252","longitude:":"139.700511"},
{"webSite":null,"sourceOfInformation":"箕面ビール公式サイト","state":"東京都","shopFlg":false,"name":"風来坊","phone_number":"080-6560-3946","address":"北区十条仲原1-1-2 柏木ビル２F","latitude":"35.761484","longitude:":"139.722036"},
{"webSite":null,"sourceOfInformation":"箕面ビール公式サイト","state":"東京都","shopFlg":false,"name":"ビアカフェ ガンブリヌス","phone_number":"042-325-0484","address":"国分寺市南町3-16-5 第46東京ビル6F","latitude":"35.69898","longitude:":"139.480082"},
{"webSite":null,"sourceOfInformation":"箕面ビール公式サイト","state":"東京都","shopFlg":false,"name":"h@bit","phone_number":"03-3768-5447","address":"品川区南大井3-33-7 第８ハネハビル　２Ｆ","latitude":"35.587454","longitude:":"139.734477"},
{"webSite":null,"sourceOfInformation":"箕面ビール公式サイト","state":"東京都","shopFlg":false,"name":"Beer Dining The GRIFFON","phone_number":"03-3498-0839","address":"渋谷区渋谷2-22-6 幸和ビル　Ｂ１Ｆ","latitude":"35.65839","longitude:":"139.703848"},
{"webSite":null,"sourceOfInformation":"箕面ビール公式サイト","state":"東京都","shopFlg":false,"name":"Shot Bar ゾートロープ","phone_number":"03-3363-0162","address":"新宿区西新宿7-10-14 ガイアビル３Ｆ","latitude":"35.694487","longitude:":"139.698407"},
{"webSite":null,"sourceOfInformation":"箕面ビール公式サイト","state":"東京都","shopFlg":false,"name":"地ビールバー まる麦","phone_number":"03-6380-4745","address":"新宿区荒木町1 一番館ビル　２Ｆ","latitude":"35.688897","longitude:":"139.721861"},
{"webSite":null,"sourceOfInformation":"箕面ビール公式サイト","state":"東京都","shopFlg":false,"name":"神楽坂 ラ・カシェット","phone_number":"03-3513-0823","address":"新宿区神楽坂1-10 三経第22ビル3F","latitude":"35.700467","longitude:":"139.742221"},
{"webSite":null,"sourceOfInformation":"箕面ビール公式サイト","state":"東京都","shopFlg":false,"name":"New School","phone_number":"03-3232-2626","address":"新宿区西早稲田2-1-17","latitude":"35.706539","longitude:":"139.717822"},
{"webSite":null,"sourceOfInformation":"箕面ビール公式サイト","state":"東京都","shopFlg":false,"name":"焼き貝　あぶさん","phone_number":"03-3330-6855","address":"杉並区高円寺北2-38-15","latitude":"35.70864","longitude:":"139.649942"},
{"webSite":null,"sourceOfInformation":"箕面ビール公式サイト","state":"東京都","shopFlg":false,"name":"BAR 私","phone_number":"03-5356-9375","address":"杉並区高円寺北3-2-1","latitude":"35.705576","longitude:":"139.648312"},
{"webSite":null,"sourceOfInformation":"箕面ビール公式サイト","state":"東京都","shopFlg":false,"name":"Beer Bar STONE","phone_number":"03-5373-0312","address":"杉並区阿佐ヶ谷北2-4-2 田嶋店舗　2F","latitude":"35.78221","longitude:":"139.636537"},
{"webSite":null,"sourceOfInformation":"箕面ビール公式サイト","state":"東京都","shopFlg":false,"name":"萬感","phone_number":"03-3314-5008","address":"杉並区高円寺南3-47-8 高円寺ニューナショナルコート 102 1F","latitude":"35.703624","longitude:":"139.647879"},
{"webSite":null,"sourceOfInformation":"箕面ビール公式サイト","state":"東京都","shopFlg":false,"name":"麦酒倶楽部 ポパイ","phone_number":"03-3633-2120","address":"墨田区両国2-18-7 ハイツ両国駅前　１０２号","latitude":"35.695047","longitude:":"139.792729"},
{"webSite":null,"sourceOfInformation":"箕面ビール公式サイト","state":"東京都","shopFlg":false,"name":"ビアバー うしとら","phone_number":"03-3485-9090","address":"世田谷区北沢2-9-3 三久ビル　２Ｆ","latitude":"35.662277","longitude:":"139.668783"},
{"webSite":null,"sourceOfInformation":"箕面ビール公式サイト","state":"東京都","shopFlg":false,"name":"TACHIKAWA BREWERY","phone_number":"042-526-2766","address":"立川市柴崎町3-1-7 立川南口第2ビル5F","latitude":"35.697612","longitude:":"139.411222"},
{"webSite":null,"sourceOfInformation":"箕面ビール公式サイト","state":"東京都","shopFlg":false,"name":"DEVIL CRAFT","phone_number":"03-6265-1779","address":"中央区日本橋室町4-2-3","latitude":"35.689579","longitude:":"139.771158"},
{"webSite":null,"sourceOfInformation":"箕面ビール公式サイト","state":"東京都","shopFlg":false,"name":"BEER PUB BACCHUS","phone_number":"03-3231-4666","address":"中央区八重洲1-7-7 第２山本ビル　Ｂ１Ｆ","latitude":"35.680874","longitude:":"139.770789"},
{"webSite":null,"sourceOfInformation":"箕面ビール公式サイト","state":"東京都","shopFlg":false,"name":"BULLDOG","phone_number":"03-3564-0996","address":"中央区銀座西3-1 銀座インズ１　２Ｆ","latitude":"35.674819","longitude:":"139.765084"},
{"webSite":null,"sourceOfInformation":"箕面ビール公式サイト","state":"東京都","shopFlg":false,"name":"Bar　Ocean","phone_number":"03-5856-3366","address":"中央区八重洲1-4-20 東京八重洲ビルB1","latitude":"35.681883","longitude:":"139.770439"},
{"webSite":null,"sourceOfInformation":"箕面ビール公式サイト","state":"東京都","shopFlg":false,"name":"モルタン","phone_number":"03-6659-5884","address":"千代田区内神田3-13-10 グリーンビルB1F","latitude":"35.690713","longitude:":"139.770192"},
{"webSite":null,"sourceOfInformation":"箕面ビール公式サイト","state":"東京都","shopFlg":false,"name":"PLATFORM DELI + CAFE","phone_number":"03-5259-8051","address":"千代田区神田錦町3-21 ちよだプラットフォームスクウェア内","latitude":"35.691474","longitude:":"139.761713"},
{"webSite":null,"sourceOfInformation":"箕面ビール公式サイト","state":"東京都","shopFlg":false,"name":"地ビールハウス　蔵くら","phone_number":"03-6206-8866","address":"千代田区鍛冶町1-4-6 東京神田ビル　３F","latitude":"35.689658","longitude:":"139.770819"},
{"webSite":null,"sourceOfInformation":"箕面ビール公式サイト","state":"東京都","shopFlg":false,"name":"barBAR Ｔokyo","phone_number":"03-3216-0581","address":"千代田区丸の内1-9-1 東京駅地下名店街　Ｂ１Ｆ　黒塀横丁","latitude":"35.6816","longitude:":"139.767589"},
{"webSite":null,"sourceOfInformation":"箕面ビール公式サイト","state":"東京都","shopFlg":false,"name":"Ale House","phone_number":"03-3980-4845","address":"豊島区西池袋1-16-8 山口ビル B1F","latitude":"35.695738","longitude:":"139.709663"},
{"webSite":null,"sourceOfInformation":"箕面ビール公式サイト","state":"東京都","shopFlg":false,"name":"vivo","phone_number":"03-3987-1588","address":"豊島区東池袋1-20-5 七富久ビルB1","latitude":"35.730822","longitude:":"139.715452"},
{"webSite":null,"sourceOfInformation":"箕面ビール公式サイト","state":"東京都","shopFlg":false,"name":"The Cat & Cask Tavern","phone_number":"03-3530-6180","address":"豊島区要町1-32-10","latitude":"35.735732","longitude:":"139.695187"},
{"webSite":null,"sourceOfInformation":"箕面ビール公式サイト","state":"東京都","shopFlg":false,"name":"DRY DOCK","phone_number":"03-5777-4755","address":"港区新橋3-25-10","latitude":"35.664737","longitude:":"139.758446"},
{"webSite":null,"sourceOfInformation":"箕面ビール公式サイト","state":"東京都","shopFlg":false,"name":"Ant'n Bee","phone_number":"03-3478-1250","address":"港区六本木5-1-5","latitude":"35.66272","longitude:":"139.733026"},
{"webSite":null,"sourceOfInformation":"箕面ビール公式サイト","state":"東京都","shopFlg":false,"name":"CRAFT BEER MARKET 虎ノ門店","phone_number":"03-6206-1603","address":"港区西新橋1-23-3 S.A.グレイス　1F","latitude":"35.668606","longitude:":"139.751772"},
{"webSite":null,"sourceOfInformation":"箕面ビール公式サイト","state":"東京都","shopFlg":false,"name":"樽生ビール専門店　COOPER ALE'S","phone_number":"03-6450-1377","address":"港区新橋3-16-3 烏森ビル３Ｆ","latitude":"35.665817","longitude:":"139.757162"},
{"webSite":null,"sourceOfInformation":"箕面ビール公式サイト","state":"東京都","shopFlg":false,"name":"憩 ikoi","phone_number":"03-6435-4145","address":"港区南麻布1-6-3","latitude":"35.652507","longitude:":"139.735442"},
{"webSite":null,"sourceOfInformation":"箕面ビール公式サイト","state":"東京都","shopFlg":false,"name":"TAKIEY","phone_number":"03-5731-7484","address":"目黒区平町1-26-13","latitude":"35.617504","longitude:":"139.676777"},
{"webSite":null,"sourceOfInformation":"箕面ビール公式サイト","state":"東京都","shopFlg":false,"name":"ハンモックカフェ mahikamano","phone_number":"0422-42-5930","address":"武蔵野市吉祥寺南町2-8-1","latitude":"35.70232","longitude:":"139.582218"},
{"webSite":null,"sourceOfInformation":"箕面ビール公式サイト","state":"東京都","shopFlg":false,"name":"テラスカフェ720","phone_number":"03-5731-8500","address":"目黒区中根2-1-15","latitude":"35.616243","longitude:":"139.676982"},
{"webSite":null,"sourceOfInformation":"箕面ビール公式サイト","state":"東京都","shopFlg":false,"name":"Nelson's","phone_number":"03-5704-3588","address":"目黒区五本木3-30-6","latitude":"35.629917","longitude:":"139.681792"},
{"webSite":null,"sourceOfInformation":"箕面ビール公式サイト","state":"東京都","shopFlg":false,"name":"Speyside Way","phone_number":"03-3723-7807","address":"目黒区自由が丘1-26-9　三笠ビル５階","latitude":"35.608793","longitude:":"139.668627"},
{"webSite":null,"sourceOfInformation":"箕面ビール公式サイト","state":"神奈川県","shopFlg":false,"name":"Gold'nBub","phone_number":"0466-51-4176","address":"藤沢市辻堂2-9-30","latitude":"35.335514","longitude:":"139.446312"},
{"webSite":null,"sourceOfInformation":"箕面ビール公式サイト","state":"神奈川県","shopFlg":false,"name":"Century Break","phone_number":"0466-25-5688","address":"藤沢市鵠沼石上1-4-6","latitude":"35.336451","longitude:":"139.488919"},
{"webSite":null,"sourceOfInformation":"箕面ビール公式サイト","state":"神奈川県","shopFlg":false,"name":"Beer Cafe HOPMAN","phone_number":"0467-85-5688","address":"茅ヶ崎市十間坂1-1-23 サンライヅ湘南　２Ｆ","latitude":"35.330875","longitude:":"139.401796"},
{"webSite":null,"sourceOfInformation":"箕面ビール公式サイト","state":"神奈川県","shopFlg":false,"name":"Beer Republic","phone_number":"045-444-0502","address":"横浜市神奈川区金港町6-13","latitude":"35.469294","longitude:":"139.626367"},
{"webSite":null,"sourceOfInformation":"箕面ビール公式サイト","state":"神奈川県","shopFlg":false,"name":"KEEL'S BAR HOUSE","phone_number":"045-985-7522","address":"横浜市青葉区青葉台2-11-28","latitude":"35.546135","longitude:":"139.516734"},
{"webSite":null,"sourceOfInformation":"箕面ビール公式サイト","state":"神奈川県","shopFlg":false,"name":"クラフトビアバー","phone_number":"045-651-0440","address":"横浜市中区太田町2-31-3　コーポサンライフ太田町1F","latitude":"35.447574","longitude:":"139.637622"},
{"webSite":null,"sourceOfInformation":"箕面ビール公式サイト","state":"神奈川県","shopFlg":false,"name":"アイリッシュバー・マッキャンズ","phone_number":"044-711-1761","address":"川崎市中原区小杉町3-269-3中","latitude":"35.574726","longitude:":"139.658661"},
{"webSite":null,"sourceOfInformation":"箕面ビール公式サイト","state":"愛知県","shopFlg":false,"name":"AL Fortuna","phone_number":"052-753-4799","address":"名古屋市千種区末盛通1-1 弘法屋ビル2F","latitude":"35.166701","longitude:":"136.952305"},
{"webSite":null,"sourceOfInformation":"箕面ビール公式サイト","state":"愛知県","shopFlg":false,"name":"23 craft beerz NAGOYA","phone_number":"052-265-9777","address":"名古屋市中区丸の内2-3-21","latitude":"35.176661","longitude:":"136.899982"},
{"webSite":null,"sourceOfInformation":"箕面ビール公式サイト","state":"愛知県","shopFlg":false,"name":"BEER & COFFEE 229","phone_number":"0564-74-7981","address":"岡崎市八幡町2-29","latitude":"34.960472","longitude:":"137.165644"},
{"webSite":null,"sourceOfInformation":"箕面ビール公式サイト","state":"愛知県","shopFlg":false,"name":"Casa de Lazo","phone_number":"052-722-8882","address":"名古屋市東区矢田5-1-56","latitude":"35.191716","longitude:":"136.94158"},
{"webSite":null,"sourceOfInformation":"箕面ビール公式サイト","state":"愛知県","shopFlg":false,"name":"地酒地焼酎 かない","phone_number":"052-953-6121","address":"名古屋市東区東桜1-2-25 野々山ビル1F","latitude":"35.172999","longitude:":"136.911043"},
{"webSite":null,"sourceOfInformation":"箕面ビール公式サイト","state":"愛知県","shopFlg":false,"name":"キッチン雅木","phone_number":"052-703-3614","address":"名古屋市名東区野間町14","latitude":"35.160391","longitude:":"137.007137"},
{"webSite":null,"sourceOfInformation":"箕面ビール公式サイト","state":"愛知県","shopFlg":false,"name":"KEG NAGOYA","phone_number":"052-971-8211","address":"名古屋市東区東桜1-10-13","latitude":"35.172712","longitude:":"136.910134"},
{"webSite":null,"sourceOfInformation":"箕面ビール公式サイト","state":"愛知県","shopFlg":false,"name":"Beerhouse&yakitori CHICKEN BOY","phone_number":"052-732-3177","address":"名古屋市千種区内山3-31-14 サンシャイン今池1階","latitude":"35.169607","longitude:":"136.935714"},
{"webSite":null,"sourceOfInformation":"箕面ビール公式サイト","state":"愛知県","shopFlg":false,"name":"MAX’S　BAR","phone_number":"052-238-5100","address":"名古屋市中区大須4-1-7 サンポート矢場ビル1F","latitude":"35.158415","longitude:":"136.90411"},
{"webSite":null,"sourceOfInformation":"箕面ビール公式サイト","state":"新潟県","shopFlg":false,"name":"Rohan","phone_number":"025-244-9000","address":"新潟市中央区南万代町1-7　南万代テラスA棟1F","latitude":"37.913573","longitude:":"139.057609"},
{"webSite":null,"sourceOfInformation":"箕面ビール公式サイト","state":"静岡県","shopFlg":false,"name":"ビールのヨコタ","phone_number":"054-255-3683","address":"静岡市葵区呉服町2-5-22","latitude":"34.974434","longitude:":"138.383768"},
{"webSite":null,"sourceOfInformation":"箕面ビール公式サイト","state":"静岡県","shopFlg":false,"name":"GROW STOCK","phone_number":"054-293-9331","address":"静岡市葵区紺屋町6-9 紺屋町中ビル5F","latitude":"34.972979","longitude:":"138.385544"},
{"webSite":null,"sourceOfInformation":"箕面ビール公式サイト","state":"静岡県","shopFlg":false,"name":"ダイニングバー　黒ひげ","phone_number":"06-6885-5139","address":"大阪市淀川区十三本町3-7-46","latitude":"34.721839","longitude:":"135.481511"},
{"webSite":null,"sourceOfInformation":"箕面ビール公式サイト","state":"大阪府","shopFlg":false,"name":"たこもん","phone_number":"06-6581-8824　","address":"大阪市西区千代崎1-22-5","latitude":"34.673698","longitude:":"135.480204"},
{"webSite":null,"sourceOfInformation":"箕面ビール公式サイト","state":"大阪府","shopFlg":false,"name":"ビアバル・ダークホース","phone_number":"06-6131-6524","address":"大阪市福島区福島８丁目８-３","latitude":"34.696048","longitude:":"135.483847"},
{"webSite":null,"sourceOfInformation":"箕面ビール公式サイト","state":"大阪府","shopFlg":false,"name":"いたりあん居酒屋「裏道１階」","phone_number":"072-720-6636","address":"箕面市萱野2-11-4　","latitude":"34.83148","longitude:":"135.486059"},
{"webSite":null,"sourceOfInformation":"箕面ビール公式サイト","state":"大阪府","shopFlg":false,"name":"Bar Lime Light","phone_number":"072-6010-261","address":"茨木市双葉町2-3ツインリーブス1F","latitude":"34.807949","longitude:":"135.53852"},
{"webSite":null,"sourceOfInformation":"箕面ビール公式サイト","state":"大阪府","shopFlg":false,"name":"Bar　みとう","phone_number":"06-6245-1358","address":"大阪市中央区東心斎橋1-18-2 心斎橋山本ビル 1F","latitude":"34.669121","longitude:":"135.487899"},
{"webSite":null,"sourceOfInformation":"箕面ビール公式サイト","state":"大阪府","shopFlg":false,"name":"Art dining Oval","phone_number":"06-6115-7756","address":"大阪市阿倍野区阿倍野筋2-4-45","latitude":"34.643318","longitude:":"135.512704"},
{"webSite":null,"sourceOfInformation":"箕面ビール公式サイト","state":"大阪府","shopFlg":false,"name":"ワインバー　リエゾン","phone_number":"06-4797-0626","address":"大阪市北区堂島1-3-33","latitude":"34.696785","longitude:":"135.498279"},
{"webSite":null,"sourceOfInformation":"箕面ビール公式サイト","state":"大阪府","shopFlg":false,"name":"カフェ サルンポワク","phone_number":"072-764-8200","address":"箕面市箕面6-2-18","latitude":"34.834354","longitude:":"135.469088"},
{"webSite":null,"sourceOfInformation":"箕面ビール公式サイト","state":"大阪府","shopFlg":false,"name":"Craft Beer Base","phone_number":"06-6131-7015","address":"大阪市北区大淀南1丁目2‐11","latitude":"34.703372","longitude:":"135.490308"},
{"webSite":null,"sourceOfInformation":"箕面ビール公式サイト","state":"大阪府","shopFlg":false,"name":"串焼屋","phone_number":"06-6651-0844","address":"大阪市西成区玉出西2-2-1","latitude":"34.625715","longitude:":"135.490682"},
{"webSite":null,"sourceOfInformation":"箕面ビール公式サイト","state":"大阪府","shopFlg":false,"name":"吉風","phone_number":"06-6211-7019","address":"大阪市中央区心斎橋筋2-7-11 日宝ロイヤルビル１Ｆ","latitude":"34.670532","longitude:":"135.500926"},
{"webSite":null,"sourceOfInformation":"箕面ビール公式サイト","state":"大阪府","shopFlg":false,"name":"楽酒楽肴 越冬","phone_number":"06-6943-8161","address":"大阪市中央区本町橋 7-13　松井ビル１階","latitude":"34.68319","longitude:":"135.511104"},
{"webSite":null,"sourceOfInformation":"箕面ビール公式サイト","state":"大阪府","shopFlg":false,"name":"ri:casa","phone_number":"06-6921-3892","address":"大阪市都島区都島本通4-22-15","latitude":"34.708567","longitude:":"135.531876"},
{"webSite":null,"sourceOfInformation":"箕面ビール公式サイト","state":"大阪府","shopFlg":false,"name":"THE QUICK PIZZA","phone_number":"06-6359-8787","address":"大阪市北区本庄東3-9-15","latitude":"34.715233","longitude:":"135.507545"},
{"webSite":null,"sourceOfInformation":"箕面ビール公式サイト","state":"大阪府","shopFlg":false,"name":"Kokopelli","phone_number":"06-7502-3757","address":"大阪市中央区難波1-6-5 TMビル1F","latitude":"34.667739","longitude:":"135.501708"},
{"webSite":null,"sourceOfInformation":"箕面ビール公式サイト","state":"大阪府","shopFlg":false,"name":"BAR JURA","phone_number":"06-6361-1158","address":"大阪市北区兎我野町12-15 丸一ビル１階","latitude":"34.701006","longitude:":"135.502704"},
{"webSite":null,"sourceOfInformation":"箕面ビール公式サイト","state":"大阪府","shopFlg":false,"name":"Bar hakushe","phone_number":"06-6458-1677","address":"大阪市福島区福島5-8-16","latitude":"34.696118","longitude:":"135.487441"},
{"webSite":null,"sourceOfInformation":"箕面ビール公式サイト","state":"大阪府","shopFlg":false,"name":"なんば　松潮屋","phone_number":"06-6212-1178","address":"大阪市中央区難波1-3-13","latitude":"34.667457","longitude:":"135.50251"},
{"webSite":null,"sourceOfInformation":"箕面ビール公式サイト","state":"大阪府","shopFlg":false,"name":"樋口酒店","phone_number":"072-721-3112","address":"箕面市箕面1-1-37","latitude":"34.835976","longitude:":"135.468382"},
{"webSite":null,"sourceOfInformation":"箕面ビール公式サイト","state":"大阪府","shopFlg":false,"name":"橋本亭","phone_number":"072-721-3221","address":"箕面市箕面2-5-37","latitude":"34.83811","longitude:":"135.469868"},
{"webSite":null,"sourceOfInformation":"箕面ビール公式サイト","state":"大阪府","shopFlg":false,"name":"コージーコテージ","phone_number":"072-702-0596","address":"箕面市箕面4-2-23","latitude":"34.834121","longitude:":"135.478892"},
{"webSite":null,"sourceOfInformation":"箕面ビール公式サイト","state":"大阪府","shopFlg":false,"name":"スーパー居酒家キッチンマルコン","phone_number":"072-724-0551","address":"箕面市箕面5-13-46","latitude":"34.832791","longitude:":"135.470548"},
{"webSite":null,"sourceOfInformation":"箕面ビール公式サイト","state":"大阪府","shopFlg":false,"name":"洋風料理 フェリーチェ","phone_number":"072-720-3031","address":"箕面市箕面6-1-32 1F","latitude":"34.832971","longitude:":"135.468882"},
{"webSite":null,"sourceOfInformation":"箕面ビール公式サイト","state":"大阪府","shopFlg":false,"name":"鉄板焼居酒屋 轍","phone_number":"072-723-8600","address":"箕面市箕面6-1-34 101","latitude":"34.832971","longitude:":"135.468882"},
{"webSite":null,"sourceOfInformation":"箕面ビール公式サイト","state":"大阪府","shopFlg":false,"name":"串かつ 壺千","phone_number":"072-723-0077","address":"箕面市箕面6-1-34","latitude":"34.832746","longitude:":"135.468454"},
{"webSite":null,"sourceOfInformation":"箕面ビール公式サイト","state":"大阪府","shopFlg":false,"name":"食事処／支那そば　しいな","phone_number":"072-700-4117","address":"箕面市粟生外院6-2-33","latitude":"34.84349","longitude:":"135.502715"},
{"webSite":null,"sourceOfInformation":"箕面ビール公式サイト","state":"大阪府","shopFlg":false,"name":"やき鳥しゃっくん","phone_number":"072-727-3018","address":"箕面市石丸2-7-1","latitude":"34.838696","longitude:":"135.497333"},
{"webSite":null,"sourceOfInformation":"箕面ビール公式サイト","state":"大阪府","shopFlg":false,"name":"美々卯　箕面店","phone_number":"072-720-5688","address":"箕面市稲1-1-19","latitude":"34.824458","longitude:":"135.475626"},
{"webSite":null,"sourceOfInformation":"箕面ビール公式サイト","state":"大阪府","shopFlg":false,"name":"狩人食堂","phone_number":"072-725-0101","address":"箕面市温泉町1-1","latitude":"34.838534","longitude:":"135.468174"},
{"webSite":null,"sourceOfInformation":"箕面ビール公式サイト","state":"大阪府","shopFlg":false,"name":"menu","phone_number":"072-724-7246","address":"箕面市桜井2-10-5 桜井市場内","latitude":"34.815941","longitude:":"135.462536"},
{"webSite":null,"sourceOfInformation":"箕面ビール公式サイト","state":"大阪府","shopFlg":false,"name":"ENJYA","phone_number":"072-725-3422","address":"箕面市桜井2-10-23 2F","latitude":"34.815712","longitude:":"135.462308"},
{"webSite":null,"sourceOfInformation":"箕面ビール公式サイト","state":"大阪府","shopFlg":false,"name":"手打ち蕎麦処 丹波","phone_number":"072-727-8087","address":"箕面市船場西3-8-6","latitude":"34.818551","longitude:":"135.488095"},
{"webSite":null,"sourceOfInformation":"箕面ビール公式サイト","state":"大阪府","shopFlg":false,"name":"手造りハンバーグの店","phone_number":"072-722-1228","address":"箕面市白島2-28-7","latitude":"34.838302","longitude:":"135.487736"},
{"webSite":null,"sourceOfInformation":"箕面ビール公式サイト","state":"大阪府","shopFlg":false,"name":"炭火焼肉 七輪","phone_number":"072-722-6160","address":"箕面市牧落5-5-24","latitude":"34.820698","longitude:":"135.47289"},
{"webSite":null,"sourceOfInformation":"箕面ビール公式サイト","state":"大阪府","shopFlg":false,"name":"楓来坊","phone_number":"072-725-1168","address":"箕面市箕面公園2-74","latitude":"34.85333","longitude:":"135.472095"},
{"webSite":null,"sourceOfInformation":"箕面ビール公式サイト","state":"大阪府","shopFlg":false,"name":"宵ノKθFUKU","phone_number":"072-761-6803","address":"池田市石橋2-15-33","latitude":"34.808437","longitude:":"135.447134"},
{"webSite":null,"sourceOfInformation":"箕面ビール公式サイト","state":"大阪府","shopFlg":false,"name":"創作居酒屋　おっげ","phone_number":"072-632-5439","address":"茨木市東奈良3-16-36","latitude":"34.801815","longitude:":"135.567952"},
{"webSite":null,"sourceOfInformation":"箕面ビール公式サイト","state":"大阪府","shopFlg":false,"name":"まるしん","phone_number":"06-6358-0081","address":"大阪市北区池田町7-1","latitude":"34.706992","longitude:":"135.513008"},
{"webSite":null,"sourceOfInformation":"箕面ビール公式サイト","state":"大阪府","shopFlg":false,"name":"Cafe Bar Ima Doma","phone_number":"06-6940-7255","address":"大阪市北区浮田1-1-15","latitude":"34.70875","longitude:":"135.509248"},
{"webSite":null,"sourceOfInformation":"箕面ビール公式サイト","state":"大阪府","shopFlg":false,"name":"brasserie boo","phone_number":"06-6348-1159","address":"大阪市北区梅田2丁目4-13 阪神産経桜橋ビル1F","latitude":"34.698401","longitude:":"135.494028"},
{"webSite":null,"sourceOfInformation":"箕面ビール公式サイト","state":"大阪府","shopFlg":false,"name":"RE-CAFE","phone_number":"06-6485-7773","address":"大阪市北区梅田3-1-3","latitude":"34.702939","longitude:":"135.495524"},
{"webSite":null,"sourceOfInformation":"箕面ビール公式サイト","state":"大阪府","shopFlg":false,"name":"会津屋　梅田店","phone_number":"06-6346-3444","address":"大阪市北区梅田3-2-136　梅三小路内","latitude":"34.70077","longitude:":"135.492793"},
{"webSite":null,"sourceOfInformation":"箕面ビール公式サイト","state":"大阪府","shopFlg":false,"name":"炉端屋つばめいろ","phone_number":"06-4797-2266","address":"大阪市北区大淀中1-16-16","latitude":"34.706333","longitude:":"135.488352"},
{"webSite":null,"sourceOfInformation":"箕面ビール公式サイト","state":"大阪府","shopFlg":false,"name":"CRAFT BEER HOUSE molto!","phone_number":"06-6809-2641","address":"大阪市北区角田町8-47　阪急グランドビル31階","latitude":"34.702986","longitude:":"135.499048"},
{"webSite":null,"sourceOfInformation":"箕面ビール公式サイト","state":"大阪府","shopFlg":false,"name":"アレグレ","phone_number":"06-6361-6060","address":"大阪市北区小松原町1-11 阪急東通り 田園ビル2F","latitude":"34.702476","longitude:":"135.50072"},
{"webSite":null,"sourceOfInformation":"箕面ビール公式サイト","state":"大阪府","shopFlg":false,"name":"ワイン食堂リエゾン茶屋町","phone_number":"06-6359-8711","address":"大阪市北区芝田1-6-2 阪急古書のまち １F","latitude":"34.705807","longitude:":"135.497857"},
{"webSite":null,"sourceOfInformation":"箕面ビール公式サイト","state":"大阪府","shopFlg":false,"name":"イタリア酒場 ENTRATA 茶屋町店","phone_number":"06-6374-3066","address":"大阪市北区芝田1-7-2","latitude":"34.707339","longitude:":"135.497957"},
{"webSite":null,"sourceOfInformation":"箕面ビール公式サイト","state":"大阪府","shopFlg":false,"name":"Bar 道成","phone_number":"06-6311-7314","address":"大阪市北区曽根崎2-5-24 石見ビル２Ｆ","latitude":"34.699493","longitude:":"135.50146"},
{"webSite":null,"sourceOfInformation":"箕面ビール公式サイト","state":"大阪府","shopFlg":false,"name":"地下酒場umbrella","phone_number":"06-6316-4440","address":"大阪市北区曽根崎２‐７‐２　松田ビルＢ１","latitude":"34.699659","longitude:":"135.50029"},
{"webSite":null,"sourceOfInformation":"箕面ビール公式サイト","state":"大阪府","shopFlg":false,"name":"Living Place SUN","phone_number":"06-6348-0119","address":"大阪市北区曽根崎新地1-1-14 第二サウスビル２F","latitude":"34.696769","longitude:":"135.499692"},
{"webSite":null,"sourceOfInformation":"箕面ビール公式サイト","state":"大阪府","shopFlg":false,"name":"Beso Mary.r","phone_number":"06-6345-8885","address":"大阪市北区曽根崎新地1-3-10 北新地山忠ビル2号館B1F","latitude":"34.697664","longitude:":"135.49837"},
{"webSite":null,"sourceOfInformation":"箕面ビール公式サイト","state":"大阪府","shopFlg":false,"name":"cucina cucina","phone_number":"06-6344-9717","address":"大阪市北区曽根崎新地1-6-13 ニューセントラルビル1F","latitude":"34.697526","longitude:":"135.498127"},
{"webSite":null,"sourceOfInformation":"箕面ビール公式サイト","state":"大阪府","shopFlg":false,"name":"山吹","phone_number":"06-6345-4488","address":"大阪市北区曽根崎新地1-6-24 2F","latitude":"34.697518","longitude:":"135.498718"},
{"webSite":null,"sourceOfInformation":"箕面ビール公式サイト","state":"大阪府","shopFlg":false,"name":"酒場　トペ","phone_number":"090-3972-7194","address":"大阪市北区曾根崎新地1-8-3 遅ビル3F","latitude":"34.697395","longitude:":"135.50041"},
{"webSite":null,"sourceOfInformation":"箕面ビール公式サイト","state":"大阪府","shopFlg":false,"name":"Bar Quinta","phone_number":"06-6345-1911","address":"大阪市北区曽根崎新地1-11-6","latitude":"34.697637","longitude:":"135.498168"},
{"webSite":null,"sourceOfInformation":"箕面ビール公式サイト","state":"大阪府","shopFlg":false,"name":"STANDARD BOOKSTORE　茶屋町","phone_number":"06-6485-7139","address":"大阪市北区茶屋町8-26","latitude":"34.707139","longitude:":"135.499662"},
{"webSite":null,"sourceOfInformation":"箕面ビール公式サイト","state":"大阪府","shopFlg":false,"name":"TENMA BAR KAFU","phone_number":"06-6881-0530","address":"大阪市北区天神橋4-11-18","latitude":"34.706289","longitude:":"135.511647"},
{"webSite":null,"sourceOfInformation":"箕面ビール公式サイト","state":"大阪府","shopFlg":false,"name":"MUSH-UP","phone_number":"06-6351-3106","address":"大阪市北区天神橋6丁目3-26","latitude":"34.710031","longitude:":"135.512597"},
{"webSite":null,"sourceOfInformation":"箕面ビール公式サイト","state":"大阪府","shopFlg":false,"name":"マツケン食堂","phone_number":"06-6344-1099","address":"大阪市北区堂島1-3-19 薬師堂ビル１階1-C","latitude":"34.696873","longitude:":"135.497396"},
{"webSite":null,"sourceOfInformation":"箕面ビール公式サイト","state":"大阪府","shopFlg":false,"name":"大西デンキ","phone_number":"080-2481-0024","address":"大阪市北区堂島1-3-28　堂島センター１Ｆ","latitude":"34.69687","longitude:":"135.497759"},
{"webSite":null,"sourceOfInformation":"箕面ビール公式サイト","state":"大阪府","shopFlg":false,"name":"TAVERNA ENTRATA","phone_number":"06-6345-0306","address":"大阪市北区堂島2-1-27 桜橋千代田ビル1F","latitude":"34.696249","longitude:":"135.494445"},
{"webSite":null,"sourceOfInformation":"箕面ビール公式サイト","state":"大阪府","shopFlg":false,"name":"市松","phone_number":"06-6346-0112","address":"大阪市北区堂島2-2-33 萬伸社ビル　１Ｆ","latitude":"34.697286","longitude:":"135.494887"},
{"webSite":null,"sourceOfInformation":"箕面ビール公式サイト","state":"大阪府","shopFlg":false,"name":"ごちそう埋蔵の店　くらや","phone_number":"06-6315-8760","address":"大阪市北区堂山町2-13","latitude":"34.70284","longitude:":"135.503726"},
{"webSite":null,"sourceOfInformation":"箕面ビール公式サイト","state":"大阪府","shopFlg":false,"name":"珈琲舎・書肆アラビク","phone_number":"06-7500-5519","address":"大阪市北区中崎3-2-14","latitude":"34.70847","longitude:":"135.504842"},
{"webSite":null,"sourceOfInformation":"箕面ビール公式サイト","state":"大阪府","shopFlg":false,"name":"Tina Lente","phone_number":"06-6359-2448","address":"大阪市北区中崎西1－7－28","latitude":"34.708081","longitude:":"135.50452"},
{"webSite":null,"sourceOfInformation":"箕面ビール公式サイト","state":"大阪府","shopFlg":false,"name":"飛鳥","phone_number":"06-6361-0137","address":"大阪市北区西天満３丁目８－１８　１F","latitude":"34.695021","longitude:":"135.507492"},
{"webSite":null,"sourceOfInformation":"箕面ビール公式サイト","state":"大阪府","shopFlg":false,"name":"おいしい肉とお酒 月桃","phone_number":"06-6361-4335","address":"大阪市北区山崎町2-2 グリーン関野ビル1F","latitude":"34.705821","longitude:":"135.509423"},
{"webSite":null,"sourceOfInformation":"箕面ビール公式サイト","state":"大阪府","shopFlg":false,"name":"イタリア食堂 pelotto","phone_number":"080-3516-8094","address":"大阪市此花区西九条3-12-13","latitude":"34.683491","longitude:":"135.466707"},
{"webSite":null,"sourceOfInformation":"箕面ビール公式サイト","state":"大阪府","shopFlg":false,"name":"庵　よすが","phone_number":"06-7890-6210","address":"大阪市住吉区苅田3-12-16 苅田３丁目ハイツ","latitude":"34.60168","longitude:":"135.51621"},
{"webSite":null,"sourceOfInformation":"箕面ビール公式サイト","state":"大阪府","shopFlg":false,"name":"DINING BAR Cache-Cache","phone_number":"06-6180-5555","address":"大阪市城東区蒲生1-8-5","latitude":"34.69833","longitude:":"135.536734"},
{"webSite":null,"sourceOfInformation":"箕面ビール公式サイト","state":"大阪府","shopFlg":false,"name":"レ　コッコレ","phone_number":"06-6245-5556","address":"大阪市中央区北久宝寺町3-4-1　豆庭ビル1,2階","latitude":"34.680345","longitude:":"135.50226"},
{"webSite":null,"sourceOfInformation":"箕面ビール公式サイト","state":"大阪府","shopFlg":false,"name":"MJB珈琲店","phone_number":"06-6203-0078","address":"大阪市中央区北浜4-1-1 石原ビル　Ｂ１Ｆ","latitude":"34.692356","longitude:":"135.500663"},
{"webSite":null,"sourceOfInformation":"箕面ビール公式サイト","state":"大阪府","shopFlg":false,"name":"旬菜　桜花","phone_number":"06-6201-0223","address":"大阪市中央区高麗橋4-5-13 淀屋橋サテライトビル1F","latitude":"34.690222","longitude:":"135.498146"},
{"webSite":null,"sourceOfInformation":"箕面ビール公式サイト","state":"大阪府","shopFlg":false,"name":"大阪産（もん）料理　空　船場女将小路店","phone_number":"06-6241-5855","address":"大阪市中央区船場中央4-1-10 船場センタービル10号館B1","latitude":"34.681808","longitude:":"135.504021"},
{"webSite":null,"sourceOfInformation":"箕面ビール公式サイト","state":"大阪府","shopFlg":false,"name":"アララギ","phone_number":"06-6764-1238","address":"大阪市中央区谷町6-18-28","latitude":"34.675598","longitude:":"135.513409"},
{"webSite":null,"sourceOfInformation":"箕面ビール公式サイト","state":"大阪府","shopFlg":false,"name":"しゃんらん","phone_number":"06-4304-0064","address":"大阪市中央区玉造1-6-22","latitude":"34.675059","longitude:":"135.53083"},
{"webSite":null,"sourceOfInformation":"箕面ビール公式サイト","state":"大阪府","shopFlg":false,"name":"hang","phone_number":"06-6762-2515","address":"大阪市中央区玉造2-16-25　大江ビル１F","latitude":"34.67508","longitude:":"135.529408"},
{"webSite":null,"sourceOfInformation":"箕面ビール公式サイト","state":"大阪府","shopFlg":false,"name":"RICOCHE","phone_number":"06-6641-3261","address":"大阪市中央区難波3-2-28","latitude":"34.666119","longitude:":"135.501555"},
{"webSite":null,"sourceOfInformation":"箕面ビール公式サイト","state":"大阪府","shopFlg":false,"name":"BAR KITAYAMA","phone_number":"06-6632-7722","address":"大阪市中央区難波4-7-9 南進会館　１Ｆ","latitude":"34.666692","longitude:":"135.498808"},
{"webSite":null,"sourceOfInformation":"箕面ビール公式サイト","state":"大阪府","shopFlg":false,"name":"会津屋　ナンバ店","phone_number":"06-6649-7708","address":"大阪市中央区難波5丁目　　ナンバなんなん内","latitude":"34.665297","longitude:":"135.500956"},
{"webSite":null,"sourceOfInformation":"箕面ビール公式サイト","state":"大阪府","shopFlg":false,"name":"居酒屋 さんぽ","phone_number":"06-6631-3353","address":"大阪市中央区難波5-1-18 なんばダイニングメゾン8F","latitude":"34.664672","longitude:":"135.500926"},
{"webSite":null,"sourceOfInformation":"箕面ビール公式サイト","state":"大阪府","shopFlg":false,"name":"リュミエール レスプリカ","phone_number":"06-6633-2281","address":"大阪市中央区難波5-1-18　なんばダイニングメゾン 9F","latitude":"34.66474","longitude:":"135.50048"},
{"webSite":null,"sourceOfInformation":"箕面ビール公式サイト","state":"大阪府","shopFlg":false,"name":"STANDARD BOOKSTORE　心斎橋","phone_number":"06-6484-2239","address":"大阪市中央区西心斎橋2-2-12クリスタグランドビルBF","latitude":"34.67059","longitude:":"135.499716"},
{"webSite":null,"sourceOfInformation":"箕面ビール公式サイト","state":"大阪府","shopFlg":false,"name":"焼肉　仁","phone_number":"06-6211-6165","address":"大阪市中央区西心斎橋2-9-17 オービットステージⅡ1F [102/103]","latitude":"34.670454","longitude:":"135.498394"},
{"webSite":null,"sourceOfInformation":"箕面ビール公式サイト","state":"大阪府","shopFlg":false,"name":"Pinot noir","phone_number":"06-6253-1167","address":"大阪市中央区東心斎橋1-8-14 オーブ・ナテ　２Ｆ","latitude":"34.67316","longitude:":"135.504092"},
{"webSite":null,"sourceOfInformation":"箕面ビール公式サイト","state":"大阪府","shopFlg":false,"name":"パシオン・エ・ナチュール　心斎橋店","phone_number":"06-6241-1159","address":"大阪市中央区東心斎橋1-12-14 ゼルコヴァビル　１Ｆ","latitude":"34.674498","longitude:":"135.503445"},
{"webSite":null,"sourceOfInformation":"箕面ビール公式サイト","state":"大阪府","shopFlg":false,"name":"Ritto marble＊tre","phone_number":"06-4704-5678","address":"大阪市中央区東心斎橋1-13-20 カネコマビル2F","latitude":"34.673827","longitude:":"135.503595"},
{"webSite":null,"sourceOfInformation":"箕面ビール公式サイト","state":"大阪府","shopFlg":false,"name":"BOOTLEG TAVARN","phone_number":"06-6245-4748","address":"大阪市中央区東心斎橋1-15-11 日宝周防町エレガンスビル１F","latitude":"34.672068","longitude:":"135.504121"},
{"webSite":null,"sourceOfInformation":"箕面ビール公式サイト","state":"大阪府","shopFlg":false,"name":"東心斎橋ほおずき","phone_number":"06-6252-2810","address":"大阪市中央区東心斎橋1-17-1 コスミビル 2階","latitude":"34.673466","longitude:":"135.503264"},
{"webSite":null,"sourceOfInformation":"箕面ビール公式サイト","state":"大阪府","shopFlg":false,"name":"和と菜と国の酒　来良し","phone_number":"06-6232-1270","address":"大阪市中央区平野町3-1-13","latitude":"34.68793","longitude:":"135.502779"},
{"webSite":null,"sourceOfInformation":"箕面ビール公式サイト","state":"大阪府","shopFlg":false,"name":"Qbrick","phone_number":"06-6203-0690","address":"大阪市中央区平野町4-6-12京音ビル,1F","latitude":"34.687574","longitude:":"135.498808"},
{"webSite":null,"sourceOfInformation":"箕面ビール公式サイト","state":"大阪府","shopFlg":false,"name":"The Court","phone_number":"06-6231-3200","address":"大阪市中央区伏見町3-3-3 芝川ビル　1F","latitude":"34.689006","longitude:":"135.501809"},
{"webSite":null,"sourceOfInformation":"箕面ビール公式サイト","state":"大阪府","shopFlg":false,"name":"Arcadian","phone_number":"06-4963-2653","address":"大阪市中央区南船場4-11-7","latitude":"34.676123","longitude:":"135.498863"},
{"webSite":null,"sourceOfInformation":"箕面ビール公式サイト","state":"大阪府","shopFlg":false,"name":"Beer Hop","phone_number":"06-6262-2024","address":"大阪市中央区南久宝寺町1-9-2 南久宝寺ビル1F","latitude":"34.679399","longitude:":"135.507269"},
{"webSite":null,"sourceOfInformation":"箕面ビール公式サイト","state":"大阪府","shopFlg":false,"name":"大阪とらふぐの会　本店","phone_number":"06-6711-0137","address":"大阪市天王寺区寺田町2-1-22 ロッキービル6F","latitude":"34.65062","longitude:":"135.522601"},
{"webSite":null,"sourceOfInformation":"箕面ビール公式サイト","state":"大阪府","shopFlg":false,"name":"Winebar・ya Riblin","phone_number":"06-6599-8188","address":"大阪市浪速区元町1-4-13 井本ビル1F","latitude":"34.665468","longitude:":"135.496995"},
{"webSite":null,"sourceOfInformation":"箕面ビール公式サイト","state":"大阪府","shopFlg":false,"name":"大阪産（もん）料理　空　堀江店","phone_number":"06-6648-8151","address":"大阪市西区北堀江1-1-27　イマイビル1階","latitude":"34.674269","longitude:":"135.497225"},
{"webSite":null,"sourceOfInformation":"箕面ビール公式サイト","state":"大阪府","shopFlg":false,"name":"天然食堂　かふぅ","phone_number":"06-6533-0775","address":"大阪市西区北堀江1-14-21","latitude":"34.673246","longitude:":"135.494491"},
{"webSite":null,"sourceOfInformation":"箕面ビール公式サイト","state":"大阪府","shopFlg":false,"name":"Craft Beer Works Kamikaze","phone_number":"06-6539-7550","address":"大阪市西区北堀江1-22-21 ヒフミヤビル１F","latitude":"34.674018","longitude:":"135.493506"},
{"webSite":null,"sourceOfInformation":"箕面ビール公式サイト","state":"大阪府","shopFlg":false,"name":"おでん・うどん　○","phone_number":"06-7493-3115","address":"大阪市西区北堀江3-4-2","latitude":"34.673357","longitude:":"135.4903"},
{"webSite":null,"sourceOfInformation":"箕面ビール公式サイト","state":"大阪府","shopFlg":false,"name":"ひまわり","phone_number":"06-6447-0922","address":"大阪市西区京町堀1-13-17","latitude":"34.686633","longitude:":"135.494574"},
{"webSite":null,"sourceOfInformation":"箕面ビール公式サイト","state":"大阪府","shopFlg":false,"name":"VADE MECVM","phone_number":"06-6447-1335","address":"大阪市西区京町堀1-13-21","latitude":"34.686783","longitude:":"135.494988"},
{"webSite":null,"sourceOfInformation":"箕面ビール公式サイト","state":"大阪府","shopFlg":false,"name":"ciucate","phone_number":"06-6441-2202","address":"大阪市西区京町堀1-17-3","latitude":"34.687341","longitude:":"135.493833"},
{"webSite":null,"sourceOfInformation":"箕面ビール公式サイト","state":"大阪府","shopFlg":false,"name":"おおの家","phone_number":"06-6585-7291","address":"大阪市西区新町1-23-8","latitude":"34.676551","longitude:":"135.495466"},
{"webSite":null,"sourceOfInformation":"箕面ビール公式サイト","state":"大阪府","shopFlg":false,"name":"HOSTEL 64 Osaka","phone_number":"06-6556-6586","address":"大阪市西区新町3-11-20","latitude":"34.678028","longitude:":"135.488342"},
{"webSite":null,"sourceOfInformation":"箕面ビール公式サイト","state":"大阪府","shopFlg":false,"name":"D&DEPARTMENT DINING OSAKA","phone_number":"06-4391-2090","address":"大阪市西区南堀江2-9-14","latitude":"34.671001","longitude:":"135.490425"},
{"webSite":null,"sourceOfInformation":"箕面ビール公式サイト","state":"大阪府","shopFlg":false,"name":"会津屋　本店","phone_number":"06-6651-2311","address":"大阪市西成区玉出西2-3-1","latitude":"34.62526","longitude:":"135.490568"},
{"webSite":null,"sourceOfInformation":"箕面ビール公式サイト","state":"大阪府","shopFlg":false,"name":"大阪まんぷく堂","phone_number":"06-6972-1199","address":"大阪市東成区大今里西3-4-14","latitude":"34.668272","longitude:":"135.542012"},
{"webSite":null,"sourceOfInformation":"箕面ビール公式サイト","state":"大阪府","shopFlg":false,"name":"THE DOGHOUSE INN","phone_number":"06-6972-3314","address":"大阪市東成区東小橋3-14-3","latitude":"34.66723","longitude:":"135.531419"},
{"webSite":null,"sourceOfInformation":"箕面ビール公式サイト","state":"大阪府","shopFlg":false,"name":"スタンド","phone_number":"06-7494-4841","address":"大阪市東成区東中本1-2-10　10F","latitude":"34.681609","longitude:":"135.545734"},
{"webSite":null,"sourceOfInformation":"箕面ビール公式サイト","state":"大阪府","shopFlg":false,"name":"網焼き　あぶら屋","phone_number":"06-6345-1002","address":"大阪市福島区鷺洲2-10-1","latitude":"34.69779","longitude:":"135.482744"},
{"webSite":null,"sourceOfInformation":"箕面ビール公式サイト","state":"大阪府","shopFlg":false,"name":"びんびとお酒　おがたまの木","phone_number":"06-6451-7557","address":"大阪市福島区福島2-7-20","latitude":"34.694423","longitude:":"135.487297"},
{"webSite":null,"sourceOfInformation":"箕面ビール公式サイト","state":"大阪府","shopFlg":false,"name":"kamoshiya Kusumoto","phone_number":"06-6455-8827","address":"大阪市福島区福島5-17-14","latitude":"34.695076","longitude:":"135.484478"},
{"webSite":null,"sourceOfInformation":"箕面ビール公式サイト","state":"大阪府","shopFlg":false,"name":"パシオン・エ・ナチュール 福島店","phone_number":"06-6452-1159","address":"大阪市福島区福島6-1 鉄道高架下","latitude":"34.692927","longitude:":"135.479543"},
{"webSite":null,"sourceOfInformation":"箕面ビール公式サイト","state":"大阪府","shopFlg":false,"name":"ONE'S OSAKA","phone_number":"06-6351-9173","address":"大阪市都島区東野田町2-9-7","latitude":"34.698152","longitude:":"135.531729"},
{"webSite":null,"sourceOfInformation":"箕面ビール公式サイト","state":"大阪府","shopFlg":false,"name":"リンコン カタルーニャ","phone_number":"06-6354-2314","address":"大阪市都島区東野田町3-6-12","latitude":"34.698107","longitude:":"135.535512"},
{"webSite":null,"sourceOfInformation":"箕面ビール公式サイト","state":"大阪府","shopFlg":false,"name":"HEAVEN`S CAFE","phone_number":"06-6309-7527","address":"大阪市淀川区十三東2-2-1","latitude":"34.721379","longitude:":"135.487616"},
{"webSite":null,"sourceOfInformation":"箕面ビール公式サイト","state":"大阪府","shopFlg":false,"name":"ビストロ ヴィサージュ","phone_number":"06-6394-5135","address":"大阪市淀川区宮原2-3-18","latitude":"34.739916","longitude:":"135.503562"},
{"webSite":null,"sourceOfInformation":"箕面ビール公式サイト","state":"大阪府","shopFlg":false,"name":"炭火焼鳥　一徹","phone_number":"0721-55-1181","address":"河内長野市菊水町1-7","latitude":"34.450588","longitude:":"135.573575"},
{"webSite":null,"sourceOfInformation":"箕面ビール公式サイト","state":"大阪府","shopFlg":false,"name":"eni-bru","phone_number":"072-255-8317","address":"堺市北区中百舌鳥町2-71","latitude":"34.556942","longitude:":"135.505599"},
{"webSite":null,"sourceOfInformation":"箕面ビール公式サイト","state":"大阪府","shopFlg":false,"name":"The 2nd Vine","phone_number":"072-255-8316","address":"堺市北区中百舌鳥町2-71 イルグランディ1F","latitude":"34.556944","longitude:":"135.505584"},
{"webSite":null,"sourceOfInformation":"箕面ビール公式サイト","state":"大阪府","shopFlg":false,"name":"麹庵","phone_number":"072-201-1194","address":"堺市中区深井沢町3373","latitude":"34.531731","longitude:":"135.498566"},
{"webSite":null,"sourceOfInformation":"箕面ビール公式サイト","state":"大阪府","shopFlg":false,"name":"炭火焼とり　鳥べえ","phone_number":"06-6330-6271","address":"吹田市岸部北2-4-26","latitude":"34.778562","longitude:":"135.53315"},
{"webSite":null,"sourceOfInformation":"箕面ビール公式サイト","state":"大阪府","shopFlg":false,"name":"江坂東急イン　シャングリラ","phone_number":"06-6338-4095","address":"吹田市豊津町9-6 江坂東急イン　２Ｆ","latitude":"34.758344","longitude:":"135.496309"},
{"webSite":null,"sourceOfInformation":"箕面ビール公式サイト","state":"大阪府","shopFlg":false,"name":"Bar Sputnik","phone_number":"072-695-5533","address":"高槻市大畑町3-1　オーニシビル２階","latitude":"34.838391","longitude:":"135.592603"},
{"webSite":null,"sourceOfInformation":"箕面ビール公式サイト","state":"大阪府","shopFlg":false,"name":"ダイニングバー オールズ","phone_number":"0726-84-1345","address":"高槻市高槻町11-7","latitude":"34.850389","longitude:":"135.621149"},
{"webSite":null,"sourceOfInformation":"箕面ビール公式サイト","state":"大阪府","shopFlg":false,"name":"喫茶去　ゆり","phone_number":"072-694 -0338","address":"高槻市氷室町2-51-2","latitude":"34.849275","longitude:":"135.588402"},
{"webSite":null,"sourceOfInformation":"箕面ビール公式サイト","state":"大阪府","shopFlg":false,"name":"いち凛","phone_number":"06-6858-3320","address":"豊中市中桜塚2-18-2 桜塚商店街","latitude":"34.780144","longitude:":"135.468511"},
{"webSite":null,"sourceOfInformation":"箕面ビール公式サイト","state":"大阪府","shopFlg":false,"name":"美酒嘉肴 利政214","phone_number":"080-2402-8064","address":"豊中市服部元町1-3-2","latitude":"34.762993","longitude:":"135.476508"},
{"webSite":null,"sourceOfInformation":"箕面ビール公式サイト","state":"大阪府","shopFlg":false,"name":"さしの花","phone_number":"06-6856-3487","address":"豊中市螢池北町1-1-1","latitude":"34.797116","longitude:":"135.447698"},
{"webSite":null,"sourceOfInformation":"箕面ビール公式サイト","state":"大阪府","shopFlg":false,"name":"味噌らーめん専門 みつか坊主","phone_number":"06-6850-3532","address":"豊中市螢池北町3-3-13","latitude":"34.795719","longitude:":"135.444021"},
{"webSite":null,"sourceOfInformation":"箕面ビール公式サイト","state":"大阪府","shopFlg":false,"name":"Apsara cafe","phone_number":"06-6832-5188","address":"豊中市本町6-1-3","latitude":"34.790051","longitude:":"135.466575"},
{"webSite":null,"sourceOfInformation":"箕面ビール公式サイト","state":"大阪府","shopFlg":false,"name":"かちがらす　八戸ノ里店","phone_number":"06-6781-8941","address":"東大阪市小阪2-15-14","latitude":"34.664268","longitude:":"135.587569"},
{"webSite":null,"sourceOfInformation":"箕面ビール公式サイト","state":"大阪府","shopFlg":false,"name":"Ages Cafe","phone_number":"072-805-0607","address":"枚方市禁野本町1-8-20 １Ｆ","latitude":"34.819109","longitude:":"135.658149"},
{"webSite":null,"sourceOfInformation":"箕面ビール公式サイト","state":"大阪府","shopFlg":false,"name":"Bar Amp","phone_number":"072-995-4666","address":"八尾市北本町1-3-2","latitude":"34.63126","longitude:":"135.599775"},
{"webSite":null,"sourceOfInformation":"箕面ビール公式サイト","state":"大阪府","shopFlg":false,"name":"炭火キッチン　とりこ","phone_number":"072-993-1011","address":"八尾市東本町3-9-36","latitude":"34.628958","longitude:":"135.604794"},
{"webSite":null,"sourceOfInformation":"箕面ビール公式サイト","state":"兵庫県","shopFlg":false,"name":"はなみずき","phone_number":"06-6493-8718","address":"尼崎市潮江1-11-1 ラヴェール尼崎　１Ｆ","latitude":"34.733293","longitude:":"135.43369"},
{"webSite":null,"sourceOfInformation":"箕面ビール公式サイト","state":"兵庫県","shopFlg":false,"name":"うなぎ処 きし","phone_number":"072-755-0548","address":"宝塚市雲雀丘2-1-8 フローレンスきし1F","latitude":"34.826838","longitude:":"135.401701"},
{"webSite":null,"sourceOfInformation":"箕面ビール公式サイト","state":"兵庫県","shopFlg":false,"name":"大阪産（もん）料理　空　猪名寺本店","phone_number":"06-6498-2915","address":"尼崎市猪名寺2-11-11","latitude":"34.766217","longitude:":"135.424606"},
{"webSite":null,"sourceOfInformation":"箕面ビール公式サイト","state":"兵庫県","shopFlg":false,"name":"Beer Cafe Barley","phone_number":"0798-65-6135","address":"西宮市長田町1-15　リバティー２　２Ｆ","latitude":"34.747713","longitude:":"135.35904"},
{"webSite":null,"sourceOfInformation":"箕面ビール公式サイト","state":"兵庫県","shopFlg":false,"name":"酒食堂 風屋 －kajiya－","phone_number":"0798-22-7724","address":"西宮市馬場町2-23　馬場町ビル１Ｆ","latitude":"34.73502","longitude:":"135.33835"},
{"webSite":null,"sourceOfInformation":"箕面ビール公式サイト","state":"京都府","shopFlg":false,"name":"Man in the Moon","phone_number":"075-672-2522","address":"京都市下京区東塩小路釜殿町31-1 近鉄名店街みやこみち","latitude":"34.984566","longitude:":"135.756756"},
{"webSite":null,"sourceOfInformation":"箕面ビール公式サイト","state":"京都府","shopFlg":false,"name":"ハンデルス ベーゲン 北山店","phone_number":"075-708-1166","address":"京都市北区上賀茂岩ヶ垣内町95 スギサキビル1Ｆ東側","latitude":"35.05145","longitude:":"135.765993"},
{"webSite":null,"sourceOfInformation":"箕面ビール公式サイト","state":"京都府","shopFlg":false,"name":"京都 坊主BAR","phone_number":"075-252-3160","address":"京都市中京区油小路通蛸薬師下る山田町526番地","latitude":"35.002775","longitude:":"135.752212"},
{"webSite":null,"sourceOfInformation":"箕面ビール公式サイト","state":"奈良県","shopFlg":false,"name":"BOTTLE STEP","phone_number":"0744-22-2701","address":"橿原市内膳町1-5-13 1F","latitude":"34.512248","longitude:":"135.791893"},
{"webSite":null,"sourceOfInformation":"箕面ビール公式サイト","state":"広島県","shopFlg":false,"name":"ワインとビールのお店 Conami","phone_number":"082-246-9005","address":"広島市中区薬研堀3-6 薬研掘ビル2F","latitude":"34.390796","longitude:":"132.465018"},
{"webSite":null,"sourceOfInformation":"箕面ビール公式サイト","state":"鹿児島県","shopFlg":false,"name":"ビアライゼ","phone_number":"099-227-0088","address":"鹿児島市千日町９－１０　平田ビル１階奥","latitude":"31.592335","longitude:":"130.550328"},
{"webSite":null,"sourceOfInformation":"箕面ビール公式サイト","state":"沖縄県","shopFlg":false,"name":"ムーンシャイン","phone_number":"099-223-1878","address":"鹿児島市山之口町11-20　池田ビル２Ｆ","latitude":"31.589088","longitude:":"130.554184"}
]