[{"webSite":null,"sourceOfInformation":"管理人調べ","state":"東京都","shopFlg":false,"name":"エーエス クラシックス ダイナー 六本木ヒルズ店","phone_number":"03-6721-1581","address":"港区六本木6-4-1","latitude":"35.661328","longitude":"139.730107"}
,{"webSite":null,"sourceOfInformation":"管理人調べ","state":"東京都","shopFlg":true,"name":"鬼頭商店「リデンテ」","phone_number":"03-3991-0118","address":"練馬区豊玉北5-18-10","latitude":"35.737129","longitude":"139.654191"}
,{"webSite":null,"sourceOfInformation":"管理人調べ","state":"東京都","shopFlg":true,"name":"スーパーみらべる中井店","phone_number":"03-5332-7755","address":"新宿区上落合3-5-16","latitude":"35.712507","longitude":"139.685239"}
,{"webSite":null,"sourceOfInformation":"管理人調べ","state":"東京都","shopFlg":true,"name":"スーパーみらべる練馬春日町店","phone_number":"03-3577-9030","address":"練馬区春日町6-6-8","latitude":"35.752788","longitude":"139.637225"}
,{"webSite":"http://maltheads.net/","sourceOfInformation":"管理人調べ","state":"北海道","shopFlg":false,"name":"Maltheads","phone_number":"011-522-5152","address":"札幌市中央区南３条西８丁目７","latitude":"43.056255","longitude":"141.346341"}
,{"webSite":"http://fujikonishi.seesaa.net/","sourceOfInformation":"管理人調べ","state":"東京都","shopFlg":true,"name":"藤小西＆プチコニシ","phone_number":"03-3365-2244","address":"中野区中央2-2-9","latitude":"35.697461","longitude":"139.680868"}
,{"webSite":"http://www.old-kitchen.com/","sourceOfInformation":"管理人調べ","state":"東京都","shopFlg":true,"name":"Bakery Old Kitchen Organic","phone_number":"03-3998-2266","address":"練馬区春日町1-2-25","latitude":"35.745422","longitude":"139.647927"}
,{"webSite":null,"sourceOfInformation":"管理人調べ","state":"東京都","shopFlg":true,"name":"UNION BAKERY","phone_number":"03-3999-0759","address":"練馬区春日町6-5-4","latitude":"35.752438","longitude":"139.638258"}
]