[{"state":"東京都","shopFlg":false,"name":"BEER&PUB WANIWANI","phone_number":"03-6750-0434","address":"世田谷区松原2-39-15","latitude":"35.668783","longitude":"139.648644"}, {"state":"東京都","shopFlg":false,"name":"よなよな BEER KITCHEN","phone_number":"03-5510-4789","address":"千代田区永田町2-14-3","latitude":"35.677321","longitude":"139.737483"},  {"state":"東京都","shopFlg":false,"name":"DRAFT CRAFT","phone_number":"03-6805-6540","address":"世田谷区玉川3-9-10","latitude":"35.613068","longitude":"139.625893"},  {"state":"東京都","shopFlg":false,"name":"クラフトビアマーケット淡路町店","phone_number":"03-5577-3046","address":"千代田区神田司町2-9-1","latitude":"35.693467","longitude":"139.767261"},  {"state":"東京都","shopFlg":false,"name":"Spicarbo BEER & GRILL","phone_number":"03-5497-1677","address":"狛江市中和泉1-2-10","latitude":"35.63417","longitude":"139.577835"},  {"state":"東京都","shopFlg":false,"name":"CRAFT BEER SERVER LAND","phone_number":"03-6228-1891","address":"新宿区神楽坂2-9","latitude":"35.70071","longitude":"139.741132"},  {"state":"東京都","shopFlg":false,"name":"スパイスダイナー","phone_number":"03-5521-0005","address":"千代田区永田町2-11-1","latitude":"35.673571","longitude":"139.740394"},  {"state":"東京都","shopFlg":true,"name":"Tasting Bar柴田屋酒店本店","phone_number":"03-5342-5139","address":"中野区中央5-3-11","latitude":"35.698027","longitude":"139.667233"},  {"state":"神奈川県","shopFlg":false,"name":"THE CAMP CAFE & GRILL","phone_number":"044-221-0255","address":"川崎市川崎区小川町1−26","latitude":"35.528487","longitude":"139.697168"},  {"state":"兵庫県","shopFlg":true,"name":"CAFÉ Kogetsudo","phone_number":"070-5262-2350","address":"尼崎市武庫川町4-2","latitude":"34.717129","longitude":"135.384206"},  {"state":"広島県","shopFlg":false,"name":"Bar & Dining OVEST","phone_number":"082-246-0246","address":"広島市中区流川町3-12","latitude":"34.390864","longitude":"132.463631"},  {"state":"神奈川県","shopFlg":false,"name":"Wild Gybe 金沢文庫店","phone_number":"045-367-8685","address":"横浜市金沢区谷津町355-1","latitude":"35.341838","longitude":"139.622906"},  {"state":"東京都","shopFlg":true,"name":"柏屋本店","phone_number":"03-3811-5162","address":"文京区春日1-12-6","latitude":"35.70967","longitude":"139.747759"}]